{
  "type": "FeatureCollection",
  "features": [
    {"type":"Feature","properties":{"facility_i":"0000003185","dept":"7","school_typ":"Elementary","deptname":"SF Unified School District (SFUSD)","facility_n":"Ulloa Elementary School"},"geometry":{"type":"Point","coordinates":[-122.49938854722042,37.73733034833979]}},{"type":"Feature","properties":{"facility_i":"0000003094","dept":"7","school_typ":"Middle School","deptname":"SF Unified School District (SFUSD)","facility_n":"FRANCISCO MIDDLE SCHOOL"},"geometry":{"type":"Point","coordinates":[-122.41102161796302,37.8043602619867]}},{"type":"Feature","properties":{"facility_i":"0000003095","dept":"7","school_typ":"Elementary","deptname":"SF Unified School District (SFUSD)","facility_n":"Yick Wo Elementary School"},"geometry":{"type":"Point","coordinates":[-122.41659653582938,37.8018995875981]}},{"type":"Feature","properties":{"facility_i":"0000003096","dept":"7","school_typ":"Elementary","deptname":"SF Unified School District (SFUSD)","facility_n":"Garfield Elementary School"},"geometry":{"type":"Point","coordinates":[-122.40653202333976,37.80193503658627]}},{"type":"Feature","properties":{"facility_i":"0000003102","dept":"7","school_typ":"Elementary","deptname":"SF Unified School District (SFUSD)","facility_n":"Parker, Jean Elementary School"},"geometry":{"type":"Point","coordinates":[-122.41105311939859,37.79764323203004]}},{"type":"Feature","properties":{"facility_i":"0000003104","dept":"7","school_typ":"Elementary","deptname":"SF Unified School District (SFUSD)","facility_n":"Spring Valley Elementary School"},"geometry":{"type":"Point","coordinates":[-122.41880011993204,37.794020021343805]}},{"type":"Feature","properties":{"facility_i":"0000003106","dept":"7","school_typ":"Elementary","deptname":"SF Unified School District (SFUSD)","facility_n":"Chinese Education Center Elementary School"},"geometry":{"type":"Point","coordinates":[-122.40405779333318,37.79476824429191]}},{"type":"Feature","properties":{"facility_i":"0000003112","dept":"7","school_typ":"Middle School","deptname":"SF Unified School District (SFUSD)","facility_n":"Marina Middle School"},"geometry":{"type":"Point","coordinates":[-122.43604686599346,37.801679935112084]}},{"type":"Feature","properties":{"facility_i":"0000003113","dept":"7","school_typ":"Early Education","deptname":"SF Unified School District (SFUSD)","facility_n":"Tule Elk Park Early Education School"},"geometry":{"type":"Point","coordinates":[-122.43456148192378,37.7993632710095]}},{"type":"Feature","properties":{"facility_i":"0000003115","dept":"7","school_typ":"Elementary","deptname":"SF Unified School District (SFUSD)","facility_n":"Sherman Elementary School"},"geometry":{"type":"Point","coordinates":[-122.42611796687414,37.79780159364936]}},{"type":"Feature","properties":{"facility_i":"0000003119","dept":"7","school_typ":"Elementary","deptname":"SF Unified School District (SFUSD)","facility_n":"Redding Elementary School"},"geometry":{"type":"Point","coordinates":[-122.41924339137266,37.78957754848094]}},{"type":"Feature","properties":{"facility_i":"0000003122","dept":"7","school_typ":"Charter School","deptname":"SF Unified School District (SFUSD)","facility_n":"Gateway High School"},"geometry":{"type":"Point","coordinates":[-122.43749698138376,37.78315100707361]}},{"type":"Feature","properties":{"facility_i":"0000003125","dept":"7","school_typ":"Early Education","deptname":"SF Unified School District (SFUSD)","facility_n":"HARVEY MILK CHILDREN CENTER"},"geometry":{"type":"Point","coordinates":[-122.42004011316662,37.783687589424936]}},{"type":"Feature","properties":{"facility_i":"0000003126","dept":"7","school_typ":"Charter School","deptname":"SF Unified School District (SFUSD)","facility_n":"Creative Arts Charter School"},"geometry":{"type":"Point","coordinates":[-122.43592717931027,37.77934657306637]}},{"type":"Feature","properties":{"facility_i":"0000003127","dept":"7","school_typ":"Early Education","deptname":"SF Unified School District (SFUSD)","facility_n":"LAGUNA GOLDEN GATE CHILD CARE CENTER,  PRE-K SCHOOL"},"geometry":{"type":"Point","coordinates":[-122.42731505935488,37.78062766296217]}},{"type":"Feature","properties":{"facility_i":"0000003131","dept":"7","school_typ":"Elementary","deptname":"SF Unified School District (SFUSD)","facility_n":"Muir, John Elementary School"},"geometry":{"type":"Point","coordinates":[-122.42878722381754,37.77372369630451]}},{"type":"Feature","properties":{"facility_i":"0000003137","dept":"7","school_typ":"Elementary","deptname":"SF Unified School District (SFUSD)","facility_n":"Cobb, Dr. William L. Elementary School"},"geometry":{"type":"Point","coordinates":[-122.43962657598038,37.78770183625308]}},{"type":"Feature","properties":{"facility_i":"0000003138","dept":"7","school_typ":"Middle School","deptname":"SF Unified School District (SFUSD)","facility_n":"Roosevelt, Theodore Middle School"},"geometry":{"type":"Point","coordinates":[-122.45835614854656,37.78228528830954]}},{"type":"Feature","properties":{"facility_i":"0000003140","dept":"7","school_typ":"High School","deptname":"SF Unified School District (SFUSD)","facility_n":"Wallenberg, Raoul High School"},"geometry":{"type":"Point","coordinates":[-122.44675749042764,37.77984810772526]}},{"type":"Feature","properties":{"facility_i":"0000003141","dept":"7","school_typ":"Elementary","deptname":"SF Unified School District (SFUSD)","facility_n":"New Traditions Elementary School"},"geometry":{"type":"Point","coordinates":[-122.45026689817244,37.77388542788435]}},{"type":"Feature","properties":{"facility_i":"0000003146","dept":"7","school_typ":"Elementary","deptname":"SF Unified School District (SFUSD)","facility_n":"Grattan Elementary School"},"geometry":{"type":"Point","coordinates":[-122.45044870085844,37.76369766608013]}},{"type":"Feature","properties":{"facility_i":"0000003149","dept":"7","school_typ":"Elementary","deptname":"SF Unified School District (SFUSD)","facility_n":"Alamo Elementary School"},"geometry":{"type":"Point","coordinates":[-122.48226338624615,37.783000781499204]}},{"type":"Feature","properties":{"facility_i":"0000003151","dept":"7","school_typ":"Elementary","deptname":"SF Unified School District (SFUSD)","facility_n":"Sutro Elementary School"},"geometry":{"type":"Point","coordinates":[-122.47145160709916,37.783603441387015]}},{"type":"Feature","properties":{"facility_i":"0000003152","dept":"7","school_typ":"Elementary","deptname":"SF Unified School District (SFUSD)","facility_n":"Peabody, George Elementary School"},"geometry":{"type":"Point","coordinates":[-122.46502461269294,37.783854467336795]}},{"type":"Feature","properties":{"facility_i":"0000003155","dept":"7","school_typ":"Middle School","deptname":"SF Unified School District (SFUSD)","facility_n":"Presidio Middle School"},"geometry":{"type":"Point","coordinates":[-122.48962711141621,37.780864737072896]}},{"type":"Feature","properties":{"facility_i":"0000003157","dept":"7","school_typ":"High School","deptname":"SF Unified School District (SFUSD)","facility_n":"Washington, George High School"},"geometry":{"type":"Point","coordinates":[-122.49102297327734,37.77787767988502]}},{"type":"Feature","properties":{"facility_i":"0000003158","dept":"7","school_typ":"Elementary","deptname":"SF Unified School District (SFUSD)","facility_n":"Lafayette Elementary School"},"geometry":{"type":"Point","coordinates":[-122.4968760765705,37.77705609519772]}},{"type":"Feature","properties":{"facility_i":"0000003161","dept":"7","school_typ":"County School","deptname":"SF Unified School District (SFUSD)","facility_n":"S.F. County Special Education School"},"geometry":{"type":"Point","coordinates":[-122.48386809911324,37.77552384865241]}},{"type":"Feature","properties":{"facility_i":"0000003162","dept":"7","school_typ":"Elementary","deptname":"SF Unified School District (SFUSD)","facility_n":"Argonne Elementary School"},"geometry":{"type":"Point","coordinates":[-122.47632885555801,37.7753369713285]}},{"type":"Feature","properties":{"facility_i":"0000003163","dept":"7","school_typ":"Elementary","deptname":"SF Unified School District (SFUSD)","facility_n":"McCoppin, Frank Elementary School"},"geometry":{"type":"Point","coordinates":[-122.46423203379584,37.776304678097375]}},{"type":"Feature","properties":{"facility_i":"0000003164","dept":"7","school_typ":"Early Education","deptname":"SF Unified School District (SFUSD)","facility_n":"Argonne Early Education School"},"geometry":{"type":"Point","coordinates":[-122.47405696318502,37.773969510499136]}},{"type":"Feature","properties":{"facility_i":"0000003165","dept":"7","school_typ":"County School","deptname":"SF Unified School District (SFUSD)","facility_n":"PCC/Big Picture San Francisco"},"geometry":{"type":"Point","coordinates":[-122.46385164103839,37.76321881688603]}},{"type":"Feature","properties":{"facility_i":"0000003166","dept":"7","school_typ":"Elementary","deptname":"SF Unified School District (SFUSD)","facility_n":"Jefferson Elementary School"},"geometry":{"type":"Point","coordinates":[-122.4768145389074,37.76329392982501]}},{"type":"Feature","properties":{"facility_i":"0000003167","dept":"7","school_typ":"Early Education","deptname":"SF Unified School District (SFUSD)","facility_n":"Jefferson Early Education School"},"geometry":{"type":"Point","coordinates":[-122.4831672480521,37.76231994270049]}},{"type":"Feature","properties":{"facility_i":"0000003169","dept":"7","school_typ":"County School","deptname":"SF Unified School District (SFUSD)","facility_n":"Walden House"},"geometry":{"type":"Point","coordinates":[-122.50223226161312,37.7613856014059]}},{"type":"Feature","properties":{"facility_i":"0000003171","dept":"7","school_typ":"Elementary","deptname":"SF Unified School District (SFUSD)","facility_n":"Lawton Alternative School"},"geometry":{"type":"Point","coordinates":[-122.48909824255104,37.75805076357093]}},{"type":"Feature","properties":{"facility_i":"0000003172","dept":"7","school_typ":"Elementary","deptname":"SF Unified School District (SFUSD)","facility_n":"Key, Francis Scott Elementary School"},"geometry":{"type":"Point","coordinates":[-122.50199953070607,37.75809770601498]}},{"type":"Feature","properties":{"facility_i":"0000003176","dept":"7","school_typ":"Middle School","deptname":"SF Unified School District (SFUSD)","facility_n":"Giannini, A. P. Middle School"},"geometry":{"type":"Point","coordinates":[-122.49721420190329,37.75061591675494]}},{"type":"Feature","properties":{"facility_i":"0000003177","dept":"7","school_typ":"Elementary","deptname":"SF Unified School District (SFUSD)","facility_n":"Stevenson, Robert Louis Elementary School"},"geometry":{"type":"Point","coordinates":[-122.49275608860434,37.74884441416349]}},{"type":"Feature","properties":{"facility_i":"0000003180","dept":"7","school_typ":"Middle School","deptname":"SF Unified School District (SFUSD)","facility_n":"Hoover, Herbert Middle School"},"geometry":{"type":"Point","coordinates":[-122.46882601849921,37.745743851452296]}},{"type":"Feature","properties":{"facility_i":"0000003184","dept":"7","school_typ":"Elementary","deptname":"SF Unified School District (SFUSD)","facility_n":"Feinstein, Dianne Elementary School"},"geometry":{"type":"Point","coordinates":[-122.48136639938794,37.73968584513285]}},{"type":"Feature","properties":{"facility_i":"0000003188","dept":"7","school_typ":"Elementary","deptname":"SF Unified School District (SFUSD)","facility_n":"McKinley Elementary School"},"geometry":{"type":"Point","coordinates":[-122.43645485360679,37.76697184384496]}},{"type":"Feature","properties":{"facility_i":"0000003194","dept":"7","school_typ":"Elementary","deptname":"SF Unified School District (SFUSD)","facility_n":"Alvarado Elementary School"},"geometry":{"type":"Point","coordinates":[-122.43816176513873,37.75371473236956]}},{"type":"Feature","properties":{"facility_i":"0000003198","dept":"7","school_typ":"Elementary","deptname":"SF Unified School District (SFUSD)","facility_n":"Miraloma Elementary School"},"geometry":{"type":"Point","coordinates":[-122.45013700207781,37.739125701664285]}},{"type":"Feature","properties":{"facility_i":"0000003199","dept":"7","school_typ":"Elementary","deptname":"SF Unified School District (SFUSD)","facility_n":"West Portal Elementary School"},"geometry":{"type":"Point","coordinates":[-122.46438898225738,37.742816063895795]}},{"type":"Feature","properties":{"facility_i":"0000003200","dept":"7","school_typ":"Elementary","deptname":"SF Unified School District (SFUSD)","facility_n":"Sunnyside Elementary School"},"geometry":{"type":"Point","coordinates":[-122.44823362614474,37.73028783914436]}},{"type":"Feature","properties":{"facility_i":"0000003202","dept":"7","school_typ":"Elementary","deptname":"SF Unified School District (SFUSD)","facility_n":"Sloat, Commodore Elementary School"},"geometry":{"type":"Point","coordinates":[-122.4705691400551,37.7316703431619]}},{"type":"Feature","properties":{"facility_i":"0000003207","dept":"7","school_typ":"Elementary","deptname":"SF Unified School District (SFUSD)","facility_n":"Marshall Elementary School"},"geometry":{"type":"Point","coordinates":[-122.41900747271926,37.766455230710136]}},{"type":"Feature","properties":{"facility_i":"0000003209","dept":"7","school_typ":"Elementary","deptname":"SF Unified School District (SFUSD)","facility_n":"Sanchez Elementary School"},"geometry":{"type":"Point","coordinates":[-122.4305000273716,37.763460073442936]}},{"type":"Feature","properties":{"facility_i":"0000003210","dept":"7","school_typ":"Middle School","deptname":"SF Unified School District (SFUSD)","facility_n":"Everett Middle School"},"geometry":{"type":"Point","coordinates":[-122.42897732452444,37.76361310111752]}},{"type":"Feature","properties":{"facility_i":"0000001042","dept":"7","school_typ":"County School","deptname":"SF Unified School District (SFUSD)","facility_n":"Log Cabin Ranch County School"},"geometry":{"type":"Point","coordinates":[-122.25685830942221,37.30485102407937]}},{"type":"Feature","properties":{"facility_i":"0000003213","dept":"7","school_typ":"High School","deptname":"SF Unified School District (SFUSD)","facility_n":"Mission High School"},"geometry":{"type":"Point","coordinates":[-122.42711267589435,37.76177429855679]}},{"type":"Feature","properties":{"facility_i":"0000003218","dept":"7","school_typ":"Charter School","deptname":"SF Unified School District (SFUSD)","facility_n":"Edison Charter K-8"},"geometry":{"type":"Point","coordinates":[-122.4262657100877,37.75443624236923]}},{"type":"Feature","properties":{"facility_i":"0000003221","dept":"7","school_typ":"Elementary","deptname":"SF Unified School District (SFUSD)","facility_n":"Buena Vista/Horace Mann"},"geometry":{"type":"Point","coordinates":[-122.42029704911698,37.753072851039796]}},{"type":"Feature","properties":{"facility_i":"0000003224","dept":"7","school_typ":"Elementary","deptname":"SF Unified School District (SFUSD)","facility_n":"Carmichael, Bessie (6-8 Campus)"},"geometry":{"type":"Point","coordinates":[-122.4004791601899,37.78055488343206]}},{"type":"Feature","properties":{"facility_i":"0000001831","dept":"7","school_typ":"Elementary","deptname":"SF Unified School District (SFUSD)","facility_n":"Carmichael, Bessie (K-5 Campus)"},"geometry":{"type":"Point","coordinates":[-122.40668800279214,37.77610457601532]}},{"type":"Feature","properties":{"facility_i":"0000003230","dept":"7","school_typ":"High School","deptname":"SF Unified School District (SFUSD)","facility_n":"Downtown High School"},"geometry":{"type":"Point","coordinates":[-122.40387545434233,37.76136330509583]}},{"type":"Feature","properties":{"facility_i":"0000003232","dept":"7","school_typ":"Elementary","deptname":"SF Unified School District (SFUSD)","facility_n":"Webster, Daniel Elementary School"},"geometry":{"type":"Point","coordinates":[-122.39597285796937,37.76057845488164]}},{"type":"Feature","properties":{"facility_i":"0000003234","dept":"7","school_typ":"Elementary","deptname":"SF Unified School District (SFUSD)","facility_n":"Bryant Elementary School"},"geometry":{"type":"Point","coordinates":[-122.40481955125531,37.75158055578977]}},{"type":"Feature","properties":{"facility_i":"0000003235","dept":"7","school_typ":"Elementary","deptname":"SF Unified School District (SFUSD)","facility_n":"Starr King Elementary School"},"geometry":{"type":"Point","coordinates":[-122.3992111357419,37.75323851956665]}},{"type":"Feature","properties":{"facility_i":"0000003237","dept":"7","school_typ":"Early Education","deptname":"SF Unified School District (SFUSD)","facility_n":"Bryant Early Education School"},"geometry":{"type":"Point","coordinates":[-122.40470068233955,37.75163100222904]}},{"type":"Feature","properties":{"facility_i":"0000003238","dept":"7","school_typ":"Early Education","deptname":"SF Unified School District (SFUSD)","facility_n":"POTRERO NURSERY"},"geometry":{"type":"Point","coordinates":[-122.3959981658851,37.75204253529077]}},{"type":"Feature","properties":{"facility_i":"0000003245","dept":"7","school_typ":"Elementary","deptname":"SF Unified School District (SFUSD)","facility_n":"Harte, Bret Elementary School"},"geometry":{"type":"Point","coordinates":[-122.3888938004174,37.7182827590514]}},{"type":"Feature","properties":{"facility_i":"0000060162","dept":"7","school_typ":"Early Education","deptname":"SF Unified School District (SFUSD)","facility_n":"Havard, Leola M. Early Education School"},"geometry":{"type":"Point","coordinates":[-122.38881566489567,37.73405014058969]}},{"type":"Feature","properties":{"facility_i":"0000003250","dept":"7","school_typ":"High School","deptname":"SF Unified School District (SFUSD)","facility_n":"Marshall, Thurgood High School"},"geometry":{"type":"Point","coordinates":[-122.40146508984853,37.735731534653866]}},{"type":"Feature","properties":{"facility_i":"0000003251","dept":"7","school_typ":"Elementary","deptname":"SF Unified School District (SFUSD)","facility_n":"Drew, Dr. Charles R. Elementary School"},"geometry":{"type":"Point","coordinates":[-122.39399537822999,37.731322072312345]}},{"type":"Feature","properties":{"facility_i":"0000003256","dept":"7","school_typ":"Elementary","deptname":"SF Unified School District (SFUSD)","facility_n":"Revere, Paul School"},"geometry":{"type":"Point","coordinates":[-122.41315842392751,37.73726298353862]}},{"type":"Feature","properties":{"facility_i":"0000003257","dept":"7","school_typ":"Elementary","deptname":"SF Unified School District (SFUSD)","facility_n":"Serra, Junipero Elementary School"},"geometry":{"type":"Point","coordinates":[-122.42149816256662,37.7369845236164]}},{"type":"Feature","properties":{"facility_i":"0000003259","dept":"7","school_typ":"Elementary","deptname":"SF Unified School District (SFUSD)","facility_n":"Hillcrest Elementary School"},"geometry":{"type":"Point","coordinates":[-122.41886225608178,37.72882231144026]}},{"type":"Feature","properties":{"facility_i":"0000003260","dept":"7","school_typ":"Middle School","deptname":"SF Unified School District (SFUSD)","facility_n":"King, Dr. Martin Luther, Jr. Middle School"},"geometry":{"type":"Point","coordinates":[-122.40546776176531,37.72770298831036]}},{"type":"Feature","properties":{"facility_i":"0000003261","dept":"7","school_typ":"Elementary","deptname":"SF Unified School District (SFUSD)","facility_n":"Taylor, E. R. Elementary School"},"geometry":{"type":"Point","coordinates":[-122.40746582403341,37.727679748812626]}},{"type":"Feature","properties":{"facility_i":"0000003262","dept":"7","school_typ":"Early Education","deptname":"SF Unified School District (SFUSD)","facility_n":"Excelsior Monroe Early Education School"},"geometry":{"type":"Point","coordinates":[-122.43047649543261,37.72564248983121]}},{"type":"Feature","properties":{"facility_i":"0000003263","dept":"7","school_typ":"Elementary","deptname":"SF Unified School District (SFUSD)","facility_n":"S.F. COMMUNITY SCHOOL"},"geometry":{"type":"Point","coordinates":[-122.43213359765731,37.72610456645008]}},{"type":"Feature","properties":{"facility_i":"0000003265","dept":"7","school_typ":"High School","deptname":"SF Unified School District (SFUSD)","facility_n":"Jordan, June High School"},"geometry":{"type":"Point","coordinates":[-122.42525276207175,37.71924049935754]}},{"type":"Feature","properties":{"facility_i":"0000003266","dept":"7","school_typ":"Elementary","deptname":"SF Unified School District (SFUSD)","facility_n":"Cleveland Elementary School"},"geometry":{"type":"Point","coordinates":[-122.42888008495392,37.7206301659639]}},{"type":"Feature","properties":{"facility_i":"0000003267","dept":"7","school_typ":"High School","deptname":"SF Unified School District (SFUSD)","facility_n":"Burton, Phillip and Sala High School"},"geometry":{"type":"Point","coordinates":[-122.40655226568997,37.7215452776853]}},{"type":"Feature","properties":{"facility_i":"0000003268","dept":"7","school_typ":"Elementary","deptname":"SF Unified School District (SFUSD)","facility_n":"El Dorado Elementary School"},"geometry":{"type":"Point","coordinates":[-122.40729607349954,37.718421982658846]}},{"type":"Feature","properties":{"facility_i":"0000003270","dept":"7","school_typ":"Middle School","deptname":"SF Unified School District (SFUSD)","facility_n":"Visitacion Valley Middle School"},"geometry":{"type":"Point","coordinates":[-122.41240776604839,37.7156515645851]}},{"type":"Feature","properties":{"facility_i":"0000003273","dept":"7","school_typ":"Elementary","deptname":"SF Unified School District (SFUSD)","facility_n":"Visitacion Valley Elementary School"},"geometry":{"type":"Point","coordinates":[-122.41027497651041,37.712525001486085]}},{"type":"Feature","properties":{"facility_i":"0000003274","dept":"7","school_typ":"Early Education","deptname":"SF Unified School District (SFUSD)","facility_n":"McLaren, John Early Education School"},"geometry":{"type":"Point","coordinates":[-122.42318559787536,37.71365111090572]}},{"type":"Feature","properties":{"facility_i":"0000003275","dept":"7","school_typ":"Early Education","deptname":"SF Unified School District (SFUSD)","facility_n":"Excelsior Guadalupe Early Education School"},"geometry":{"type":"Point","coordinates":[-122.43449972503308,37.71013456173432]}},{"type":"Feature","properties":{"facility_i":"0000003276","dept":"7","school_typ":"Elementary","deptname":"SF Unified School District (SFUSD)","facility_n":"Longfellow Elementary School"},"geometry":{"type":"Point","coordinates":[-122.4471261637636,37.71023481697759]}},{"type":"Feature","properties":{"facility_i":"0000003277","dept":"7","school_typ":"Early Education","deptname":"SF Unified School District (SFUSD)","facility_n":"Rodriguez, Zaida T. Early Education School"},"geometry":{"type":"Point","coordinates":[-122.41917118003285,37.75014826756781]}},{"type":"Feature","properties":{"facility_i":"0000003278","dept":"7","school_typ":"Middle School","deptname":"SF Unified School District (SFUSD)","facility_n":"Lick, James Middle School"},"geometry":{"type":"Point","coordinates":[-122.43215525135308,37.74954430438769]}},{"type":"Feature","properties":{"facility_i":"0000003279","dept":"7","school_typ":"Elementary","deptname":"SF Unified School District (SFUSD)","facility_n":"Mission Education Center Elementary School"},"geometry":{"type":"Point","coordinates":[-122.43143584230388,37.742204099522425]}},{"type":"Feature","properties":{"facility_i":"0000003280","dept":"7","school_typ":"Elementary","deptname":"SF Unified School District (SFUSD)","facility_n":"Fairmount Elementary School"},"geometry":{"type":"Point","coordinates":[-122.42500898855414,37.74045957565772]}},{"type":"Feature","properties":{"facility_i":"0000003282","dept":"7","school_typ":"Elementary","deptname":"SF Unified School District (SFUSD)","facility_n":"Glen Park Elementary School"},"geometry":{"type":"Point","coordinates":[-122.43578658821498,37.73309656252182]}},{"type":"Feature","properties":{"facility_i":"0000003283","dept":"7","school_typ":"High School","deptname":"SF Unified School District (SFUSD)","facility_n":"Balboa High School"},"geometry":{"type":"Point","coordinates":[-122.44080036349526,37.722170715515766]}},{"type":"Feature","properties":{"facility_i":"0000003284","dept":"7","school_typ":"Middle School","deptname":"SF Unified School District (SFUSD)","facility_n":"Denman, James Middle School"},"geometry":{"type":"Point","coordinates":[-122.44287337450497,37.72153782150691]}},{"type":"Feature","properties":{"facility_i":"0000003285","dept":"7","school_typ":"Early Education","deptname":"SF Unified School District (SFUSD)","facility_n":"San Miguel Early Education School"},"geometry":{"type":"Point","coordinates":[-122.44485801690139,37.721491333630816]}},{"type":"Feature","properties":{"facility_i":"0000003286","dept":"7","school_typ":"Elementary","deptname":"SF Unified School District (SFUSD)","facility_n":"Ortega, Jose Elementary School"},"geometry":{"type":"Point","coordinates":[-122.46629406175053,37.716378990476734]}},{"type":"Feature","properties":{"facility_i":"0000003287","dept":"7","school_typ":"Elementary","deptname":"SF Unified School District (SFUSD)","facility_n":"Sheridan Elementary School"},"geometry":{"type":"Point","coordinates":[-122.45962941485472,37.71447598671231]}},{"type":"Feature","properties":{"facility_i":"0000003293","dept":"7","school_typ":"Elementary","deptname":"SF Unified School District (SFUSD)","facility_n":"Lakeshore Elementary School"},"geometry":{"type":"Point","coordinates":[-122.48600857412701,37.73005069398274]}},{"type":"Feature","properties":{"facility_i":"0000003294","dept":"7","school_typ":"High School","deptname":"SF Unified School District (SFUSD)","facility_n":"LOWELL HIGH SCHOOL"},"geometry":{"type":"Point","coordinates":[-122.4834020074805,37.73062352927178]}},{"type":"Feature","properties":{"facility_i":"0000003236","dept":"7","school_typ":"County School","deptname":"SF Unified School District (SFUSD)","facility_n":"Hilltop Special Services Center"},"geometry":{"type":"Point","coordinates":[-122.40939655386458,37.75043248388059]}},{"type":"Feature","properties":{"facility_i":"0000003116","dept":"7","school_typ":"Charter School","deptname":"SF Unified School District (SFUSD)","facility_n":"Gateway Middle School"},"geometry":{"type":"Point","coordinates":[-122.43343825560665,37.792805019599825]}},{"type":"Feature","properties":{"facility_i":"0000003134","dept":"7","school_typ":"Elementary","deptname":"SF Unified School District (SFUSD)","facility_n":"Lilienthal, Claire (3-8 Winfield Scott Campus)"},"geometry":{"type":"Point","coordinates":[-122.44319755748482,37.80321893162568]}},{"type":"Feature","properties":{"facility_i":"0000003129","dept":"7","school_typ":"High School","deptname":"SF Unified School District (SFUSD)","facility_n":"Wells, Ida B. High School"},"geometry":{"type":"Point","coordinates":[-122.43403688047665,37.774986386073685]}},{"type":"Feature","properties":{"facility_i":"0000003144","dept":"7","school_typ":"Elementary","deptname":"SF Unified School District (SFUSD)","facility_n":"Chinese Immersion School at DeAvila"},"geometry":{"type":"Point","coordinates":[-122.4443484813539,37.769733971552235]}},{"type":"Feature","properties":{"facility_i":"0000003203","dept":"7","school_typ":"Middle School","deptname":"SF Unified School District (SFUSD)","facility_n":"APTOS MIDDLE SCHOOL"},"geometry":{"type":"Point","coordinates":[-122.46601819420813,37.72969431136373]}},{"type":"Feature","properties":{"facility_i":"0000010186","dept":"7","school_typ":"High School","deptname":"SF Unified School District (SFUSD)","facility_n":"Lincoln, Abraham High School"},"geometry":{"type":"Point","coordinates":[-122.48029535111253,37.74655970359109]}},{"type":"Feature","properties":{"facility_i":"0000003533","dept":"7","school_typ":"Elementary","deptname":"SF Unified School District (SFUSD)","facility_n":"SUNSET ELEMENTARY SCHOOL"},"geometry":{"type":"Point","coordinates":[-122.49952278493278,37.75059317312519]}},{"type":"Feature","properties":{"facility_i":"0000003100","dept":"7","school_typ":"Elementary","deptname":"SF Unified School District (SFUSD)","facility_n":"Chin, John Yehall Elementary School"},"geometry":{"type":"Point","coordinates":[-122.40321747699812,37.79861099352533]}},{"type":"Feature","properties":{"facility_i":"0000003105","dept":"7","school_typ":"Early Education","deptname":"SF Unified School District (SFUSD)","facility_n":"Stockton, Commodore Early Education School"},"geometry":{"type":"Point","coordinates":[-122.40908641441412,37.795045280888736]}},{"type":"Feature","properties":{"facility_i":"0000003107","dept":"7","school_typ":"Elementary","deptname":"SF Unified School District (SFUSD)","facility_n":"Lau, Gordon J. Elementary School"},"geometry":{"type":"Point","coordinates":[-122.40892507644288,37.79407853742553]}},{"type":"Feature","properties":{"facility_i":"0000003110","dept":"7","school_typ":"High School","deptname":"SF Unified School District (SFUSD)","facility_n":"Galileo High School"},"geometry":{"type":"Point","coordinates":[-122.42447926890853,37.80374834621129]}},{"type":"Feature","properties":{"facility_i":"0000003123","dept":"7","school_typ":"Elementary","deptname":"SF Unified School District (SFUSD)","facility_n":"Parks, Rosa Elementary School"},"geometry":{"type":"Point","coordinates":[-122.43001153983712,37.78349340332897]}},{"type":"Feature","properties":{"facility_i":"0000003128","dept":"7","school_typ":"County School","deptname":"SF Unified School District (SFUSD)","facility_n":"Civic Center Secondary School"},"geometry":{"type":"Point","coordinates":[-122.4228778578723,37.78031379026468]}},{"type":"Feature","properties":{"facility_i":"0000003136","dept":"7","school_typ":"Elementary","deptname":"SF Unified School District (SFUSD)","facility_n":"Lilienthal, Claire (K-2 Madison Campus)"},"geometry":{"type":"Point","coordinates":[-122.45806740393736,37.78722555237363]}},{"type":"Feature","properties":{"facility_i":"0000003170","dept":"7","school_typ":"Elementary","deptname":"SF Unified School District (SFUSD)","facility_n":"Yu, Alice Fong Alternative School"},"geometry":{"type":"Point","coordinates":[-122.46971143337846,37.758910483352565]}},{"type":"Feature","properties":{"facility_i":"0000003173","dept":"7","school_typ":"Early Education","deptname":"SF Unified School District (SFUSD)","facility_n":"Noriega Early Education School"},"geometry":{"type":"Point","coordinates":[-122.5036589195738,37.75384963263475]}},{"type":"Feature","properties":{"facility_i":"0000003182","dept":"7","school_typ":"High School","deptname":"SF Unified School District (SFUSD)","facility_n":"Independence High School"},"geometry":{"type":"Point","coordinates":[-122.49989695111569,37.743402257209446]}},{"type":"Feature","properties":{"facility_i":"0000003189","dept":"7","school_typ":"Elementary","deptname":"SF Unified School District (SFUSD)","facility_n":"Clarendon Elementary School"},"geometry":{"type":"Point","coordinates":[-122.45632321534815,37.753757315994235]}},{"type":"Feature","properties":{"facility_i":"0000003190","dept":"7","school_typ":"Elementary","deptname":"SF Unified School District (SFUSD)","facility_n":"HARVEY MILK CIVIL RIGHTS ACADEMY"},"geometry":{"type":"Point","coordinates":[-122.43645512148417,37.758979676814185]}},{"type":"Feature","properties":{"facility_i":"0000003191","dept":"7","school_typ":"Elementary","deptname":"SF Unified School District (SFUSD)","facility_n":"Rooftop (5-8 Mayeda Campus)"},"geometry":{"type":"Point","coordinates":[-122.44448962973527,37.757408304108004]}},{"type":"Feature","properties":{"facility_i":"0000003193","dept":"7","school_typ":"Elementary","deptname":"SF Unified School District (SFUSD)","facility_n":"Rooftop (K-4 Burnett Campus)"},"geometry":{"type":"Point","coordinates":[-122.44391692382607,37.7549952098111]}},{"type":"Feature","properties":{"facility_i":"0000003216","dept":"7","school_typ":"Elementary","deptname":"SF Unified School District (SFUSD)","facility_n":"Moscone, George Elementary School"},"geometry":{"type":"Point","coordinates":[-122.4125622286712,37.756999357324496]}},{"type":"Feature","properties":{"facility_i":"0000003217","dept":"7","school_typ":"Early Education","deptname":"SF Unified School District (SFUSD)","facility_n":"Mahler, Theresa S. Early Education School"},"geometry":{"type":"Point","coordinates":[-122.42809663617015,37.75527352939763]}},{"type":"Feature","properties":{"facility_i":"0000003220","dept":"7","school_typ":"Elementary","deptname":"SF Unified School District (SFUSD)","facility_n":"Chavez, Cesar Elementary School"},"geometry":{"type":"Point","coordinates":[-122.41509206763314,37.75489898004304]}},{"type":"Feature","properties":{"facility_i":"0000003231","dept":"7","school_typ":"High School","deptname":"SF Unified School District (SFUSD)","facility_n":"International Studies Academy"},"geometry":{"type":"Point","coordinates":[-122.4008049714524,37.76182550083592]}},{"type":"Feature","properties":{"facility_i":"0000003242","dept":"7","school_typ":"Elementary","deptname":"SF Unified School District (SFUSD)","facility_n":"Malcolm X Elementary School"},"geometry":{"type":"Point","coordinates":[-122.38110191071578,37.73420564522483]}},{"type":"Feature","properties":{"facility_i":"0000003244","dept":"7","school_typ":"Charter School","deptname":"SF Unified School District (SFUSD)","facility_n":"Metropolitan Arts and Tech"},"geometry":{"type":"Point","coordinates":[-122.38224144103529,37.73212188420522]}},{"type":"Feature","properties":{"facility_i":"0000003254","dept":"7","school_typ":"Elementary","deptname":"SF Unified School District (SFUSD)","facility_n":"Flynn, Leonard Elementary School"},"geometry":{"type":"Point","coordinates":[-122.41196533192425,37.74773759188416]}},{"type":"Feature","properties":{"facility_i":"0000003296","dept":"7","school_typ":"High School","deptname":"SF Unified School District (SFUSD)","facility_n":"Asawa, Ruth - San Francisco School of the Arts (SOTA)"},"geometry":{"type":"Point","coordinates":[-122.44866679763906,37.74543136436264]}},{"type":"Feature","properties":{"facility_i":"0000010187","dept":"7","school_typ":"Elementary","deptname":"SF Unified School District (SFUSD)","facility_n":"Carver, Dr. George Washington Elementary School"},"geometry":{"type":"Point","coordinates":[-122.38557041991413,37.73184270954276]}},{"type":"Feature","properties":{"facility_i":"0000060081","dept":"7","school_typ":"Charter School","deptname":"SF Unified School District (SFUSD)","facility_n":"Five Keys Charter"},"geometry":{"type":"Point","coordinates":[-122.40218005304878,37.777153188374726]}},{"type":"Feature","properties":{"facility_i":"0000060086","dept":"7","school_typ":"Elementary","deptname":"SF Unified School District (SFUSD)","facility_n":"Tenderloin Elementary School"},"geometry":{"type":"Point","coordinates":[-122.41995051829832,37.781854504030775]}},{"type":"Feature","properties":{"facility_i":"0000060087","dept":"7","school_typ":"High School","deptname":"SF Unified School District (SFUSD)","facility_n":"O'Connell, John High School"},"geometry":{"type":"Point","coordinates":[-122.4142148387995,37.75951718757374]}},{"type":"Feature","properties":{"facility_i":"0000060127","dept":"7","school_typ":"High School","deptname":"SF Unified School District (SFUSD)","facility_n":"Academy of Arts and Sciences"},"geometry":{"type":"Point","coordinates":[-122.44948465562666,37.74515847684934]}},{"type":"Feature","properties":{"facility_i":"0000060128","dept":"7","school_typ":"High School","deptname":"SF Unified School District (SFUSD)","facility_n":"S. F. International High School"},"geometry":{"type":"Point","coordinates":[-122.40863966358685,37.75524584125747]}},{"type":"Feature","properties":{"facility_i":"0000060129","dept":"7","school_typ":"Early Education","deptname":"SF Unified School District (SFUSD)","facility_n":"Carmichael, Bessie Early Education School"},"geometry":{"type":"Point","coordinates":[-122.40678677845632,37.77657340971875]}},{"type":"Feature","properties":{"facility_i":"0000060130","dept":"7","school_typ":"Early Education","deptname":"SF Unified School District (SFUSD)","facility_n":"Chavez, Cesar Preschool"},"geometry":{"type":"Point","coordinates":[-122.41508304389957,37.75476252521436]}},{"type":"Feature","properties":{"facility_i":"0000060131","dept":"7","school_typ":"Early Education","deptname":"SF Unified School District (SFUSD)","facility_n":"Cobb, Dr. William Preschool"},"geometry":{"type":"Point","coordinates":[-122.43915377416683,37.78799211655379]}},{"type":"Feature","properties":{"facility_i":"0000060132","dept":"7","school_typ":"Early Education","deptname":"SF Unified School District (SFUSD)","facility_n":"Drew, Dr. Charles Early Education School"},"geometry":{"type":"Point","coordinates":[-122.3938801610105,37.731767600882975]}},{"type":"Feature","properties":{"facility_i":"0000060133","dept":"7","school_typ":"Early Education","deptname":"SF Unified School District (SFUSD)","facility_n":"Sanchez Preschool"},"geometry":{"type":"Point","coordinates":[-122.43049899573296,37.76316767375339]}},{"type":"Feature","properties":{"facility_i":"0000060135","dept":"7","school_typ":"Early Education","deptname":"SF Unified School District (SFUSD)","facility_n":"Flynn, Leonard Early Education School"},"geometry":{"type":"Point","coordinates":[-122.41194677167343,37.74804342374292]}},{"type":"Feature","properties":{"facility_i":"0000060136","dept":"7","school_typ":"Early Education","deptname":"SF Unified School District (SFUSD)","facility_n":"Garfield Early Education School"},"geometry":{"type":"Point","coordinates":[-122.40679714221521,37.801902063755804]}},{"type":"Feature","properties":{"facility_i":"0000060137","dept":"7","school_typ":"Early Education","deptname":"SF Unified School District (SFUSD)","facility_n":"Grattan Early Education School"},"geometry":{"type":"Point","coordinates":[-122.4503970544728,37.763498112537874]}},{"type":"Feature","properties":{"facility_i":"0000060138","dept":"7","school_typ":"Elementary","deptname":"SF Unified School District (SFUSD)","facility_n":"Guadalupe Elementary School"},"geometry":{"type":"Point","coordinates":[-122.43411655373566,37.710314627867085]}},{"type":"Feature","properties":{"facility_i":"0000060139","dept":"7","school_typ":"Early Education","deptname":"SF Unified School District (SFUSD)","facility_n":"Harte, Bret Early Education School"},"geometry":{"type":"Point","coordinates":[-122.38980366877902,37.71819686360569]}},{"type":"Feature","properties":{"facility_i":"0000060140","dept":"7","school_typ":"Early Education","deptname":"SF Unified School District (SFUSD)","facility_n":"Key, Francis Scott Early Education School"},"geometry":{"type":"Point","coordinates":[-122.50227342567283,37.7578347893406]}},{"type":"Feature","properties":{"facility_i":"0000060141","dept":"7","school_typ":"Early Education","deptname":"SF Unified School District (SFUSD)","facility_n":"Taylor, E.R. Preschool"},"geometry":{"type":"Point","coordinates":[-122.40735999833736,37.7274128375933]}},{"type":"Feature","properties":{"facility_i":"0000060142","dept":"7","school_typ":"Early Education","deptname":"SF Unified School District (SFUSD)","facility_n":"Las Americas Early Education School"},"geometry":{"type":"Point","coordinates":[-122.41324751646933,37.75712245944677]}},{"type":"Feature","properties":{"facility_i":"0000060143","dept":"7","school_typ":"Early Education","deptname":"SF Unified School District (SFUSD)","facility_n":"Lau, Gordon J. Preschool"},"geometry":{"type":"Point","coordinates":[-122.4085895963749,37.79415329008643]}},{"type":"Feature","properties":{"facility_i":"0000060144","dept":"7","school_typ":"Early Education","deptname":"SF Unified School District (SFUSD)","facility_n":"McCoppin, Frank Early Education School"},"geometry":{"type":"Point","coordinates":[-122.46423818581991,37.776441771935815]}},{"type":"Feature","properties":{"facility_i":"0000060145","dept":"7","school_typ":"Elementary","deptname":"SF Unified School District (SFUSD)","facility_n":"Monroe Elementary School"},"geometry":{"type":"Point","coordinates":[-122.43028941722041,37.725512566642664]}},{"type":"Feature","properties":{"facility_i":"0000060146","dept":"7","school_typ":"Early Education","deptname":"SF Unified School District (SFUSD)","facility_n":"Muir, John Preschool"},"geometry":{"type":"Point","coordinates":[-122.42877414027325,37.77360964657296]}},{"type":"Feature","properties":{"facility_i":"0000060147","dept":"7","school_typ":"Early Education","deptname":"SF Unified School District (SFUSD)","facility_n":"Parker, Jean Early Education School"},"geometry":{"type":"Point","coordinates":[-122.41120119912264,37.79751749227942]}},{"type":"Feature","properties":{"facility_i":"0000060148","dept":"7","school_typ":"Early Education","deptname":"SF Unified School District (SFUSD)","facility_n":"Redding Early Education School"},"geometry":{"type":"Point","coordinates":[-122.41939595036968,37.78949141616694]}},{"type":"Feature","properties":{"facility_i":"0000060150","dept":"7","school_typ":"Early Education","deptname":"SF Unified School District (SFUSD)","facility_n":"S. F. Montessori Early Education School"},"geometry":{"type":"Point","coordinates":[-122.43363582742393,37.792775532800995]}},{"type":"Feature","properties":{"facility_i":"0000060151","dept":"7","school_typ":"Elementary","deptname":"SF Unified School District (SFUSD)","facility_n":"S. F. Public Montessori Elementary School"},"geometry":{"type":"Point","coordinates":[-122.43393496954397,37.79273570742186]}},{"type":"Feature","properties":{"facility_i":"0000060152","dept":"7","school_typ":"Early Education","deptname":"SF Unified School District (SFUSD)","facility_n":"Serra, Junipero Early Education School (1)"},"geometry":{"type":"Point","coordinates":[-122.42151153740001,37.73684052878968]}},{"type":"Feature","properties":{"facility_i":"0000060153","dept":"7","school_typ":"Early Education","deptname":"SF Unified School District (SFUSD)","facility_n":"Serra, Junipero Early Education School (2)"},"geometry":{"type":"Point","coordinates":[-122.42259917013139,37.73845825777568]}},{"type":"Feature","properties":{"facility_i":"0000060155","dept":"7","school_typ":"Early Education","deptname":"SF Unified School District (SFUSD)","facility_n":"Spring Valley Early Education School"},"geometry":{"type":"Point","coordinates":[-122.41887325621906,37.79390117049585]}},{"type":"Feature","properties":{"facility_i":"0000060156","dept":"7","school_typ":"Early Education","deptname":"SF Unified School District (SFUSD)","facility_n":"Starr King Preschool"},"geometry":{"type":"Point","coordinates":[-122.39915492378073,37.75304289528874]}},{"type":"Feature","properties":{"facility_i":"0000060157","dept":"7","school_typ":"Early Education","deptname":"SF Unified School District (SFUSD)","facility_n":"Sutro Early Education School"},"geometry":{"type":"Point","coordinates":[-122.47140120581386,37.783481295609334]}},{"type":"Feature","properties":{"facility_i":"0000060158","dept":"7","school_typ":"Early Education","deptname":"SF Unified School District (SFUSD)","facility_n":"Tenderloin Early Education School"},"geometry":{"type":"Point","coordinates":[-122.42001362736552,37.781717357469745]}},{"type":"Feature","properties":{"facility_i":"0000060159","dept":"7","school_typ":"Early Education","deptname":"SF Unified School District (SFUSD)","facility_n":"Webster, Daniel Early Education School"},"geometry":{"type":"Point","coordinates":[-122.3959765917179,37.76039379084227]}},{"type":"Feature","properties":{"facility_i":"0000060160","dept":"7","school_typ":"Early Education","deptname":"SF Unified School District (SFUSD)","facility_n":"Weill, Raphael Early Education School"},"geometry":{"type":"Point","coordinates":[-122.42977293647124,37.78328258752667]}},{"type":"Feature","properties":{"facility_i":"0000060161","dept":"7","school_typ":"County School","deptname":"SF Unified School District (SFUSD)","facility_n":"Woodside Learning Center"},"geometry":{"type":"Point","coordinates":[-122.4525051333142,37.74592654079449]}},{"type":"Feature","properties":{"facility_i":"0000060163","dept":"7","school_typ":"Elementary","deptname":"SF Unified School District (SFUSD)","facility_n":"Jefferson Out Of School (OST) Program"},"geometry":{"type":"Point","coordinates":[-122.3962022207709,37.7624788239177]}},{"type":"Feature","properties":{"facility_i":"0000060164","dept":"7","school_typ":"Charter School","deptname":"SF Unified School District (SFUSD)","facility_n":"KIPP Bayview Academy"},"geometry":{"type":"Point","coordinates":[-122.39636283554218,37.719342809692456]}},{"type":"Feature","properties":{"facility_i":"0000060165","dept":"7","school_typ":"Charter School","deptname":"SF Unified School District (SFUSD)","facility_n":"KIPP SF Bay Academy"},"geometry":{"type":"Point","coordinates":[-122.43746647931594,37.782998548834215]}},{"type":"Feature","properties":{"facility_i":"0000060166","dept":"7","school_typ":"County School","deptname":"SF Unified School District (SFUSD)","facility_n":"Larkin Street Youth Services"},"geometry":{"type":"Point","coordinates":[-122.4192013435692,37.78802326027097]}},{"type":"Feature","properties":{"facility_i":"0000060167","dept":"7","school_typ":"Charter School","deptname":"SF Unified School District (SFUSD)","facility_n":"Leadership Charter High School"},"geometry":{"type":"Point","coordinates":[-122.44326237028069,37.72143884789802]}},{"type":"Feature","properties":{"facility_i":"0000060168","dept":"7","school_typ":"Charter School","deptname":"SF Unified School District (SFUSD)","facility_n":"Life Learning Academy Charter School"},"geometry":{"type":"Point","coordinates":[-122.36792911279943,37.825297858396084]}},{"type":"Feature","properties":{"facility_i":"0000060169","dept":"7","school_typ":"Early Education","deptname":"SF Unified School District (SFUSD)","facility_n":"Presidio Early Education School"},"geometry":{"type":"Point","coordinates":[-122.46093330617384,37.79781654928736]}},{"type":"Feature","properties":{"facility_i":"0000060170","dept":"7","school_typ":"Charter School","deptname":"SF Unified School District (SFUSD)","facility_n":"City Arts and Tech High School"},"geometry":{"type":"Point","coordinates":[-122.4251075729157,37.71888586559671]}}]
}